[
    {   "sede": "Central",
        "cod":  "107",
        "ciudad": "Zarzal Valle",
        "region": "Central",
        "latlng": { 
            "lat": 4.39388, 
            "lng": -76.0742
        },
        "zoom": 16,
        "web": "",
        "dir": "calle 7 No 11-46 B. La Delfina",
        "tel": "(032) 220 6628"
    },{
        "sede": "Central",
        "cod":  "101",
        "ciudad": "Armenia Quindío",
        "region": "Central",
        "latlng": { 
            "lat": 4.549861299510984, 
            "lng": -75.66729951139223 
        },
        "zoom": 16,
        "web": "",
        "dir": "calle 9 Norte No 19-00",
        "tel": "746 6119"
    },{
        "sede": "Bethel",
        "cod":  "102",
        "ciudad": "Armenia Quindío",
        "region": "Central",
        "latlng": { 
            "lat": 4.538937999940507, 
            "lng": -75.66761182006837
        },
        "zoom": 16,
        "web": "",
        "dir": "mz p casa 8 B. el Recreo",
        "tel": ""
    },{
        "sede": "Belén",
        "cod":  "103",
        "ciudad": "Armenia Quindío",
        "region": "Central",
        "latlng": { 
            "lat": 4.527979999999999, 
            "lng": -75.68835999999999 
        },
        "zoom": 16,
        "web": "",
        "dir": "mz c casa 17 B. Belén",
        "tel": "748 2750"
    },{
        "sede": "Central",
        "cod":  "111",
        "ciudad": "Génova Quindío",
        "region": "Central",
        "latlng": { 
            "lat": 4.206008693150504,
            "lng": -75.78918924865724 
        },
        "zoom": 16,
        "web": "",
        "dir": "carrera 10 No 18-61",
        "tel": ""
    },{
        "sede": "Principal",
        "cod":  "105",
        "ciudad": "Calarcá Quindío",
        "region": "Central",
        "latlng": { 
            "lat": 4.526387652910867,
            "lng": -75.64200171562197
        },
        "zoom": 16,
        "web": "",
        "dir": "calle 33 No 24-41",
        "tel": ""
    },{
        "sede": "Principal",
        "cod":  "106",
        "ciudad": "La Tebaida, Quindío",
        "region": "Central",
        "latlng": { 
            "lat": 4.454031181967473, 
            "lng": -75.78688854232786 
        },
        "zoom": 16,
        "web": "https://www.facebook.com/AlianzaTebaida",
        "dir": "carrera 6 No 8-43",
        "tel": "754 2103"
    },{
        "sede": "Principal",
        "cod":  "113",
        "ciudad": "Córdoba, Quindío",
        "region": "Central",
        "latlng": { 
            "lat": 4.390151021924638, 
            "lng": -75.68693879728391
        },
        "zoom": 16,
        "web": "",
        "dir": "carrera 11 No 11-31",
        "tel": ""
    },{
        "sede": "Principal",
        "cod":  "114",
        "ciudad": "Barcelona, Quindío",
        "region": "Central",
        "latlng": { 
            "lat": 4.43159, 
            "lng": -75.7241900000
        },
        "zoom": 16,
        "web": "",
        "dir": "carrera 13 No 10-62",
        "tel": ""
    },{
        "sede": "Principal",
        "cod":  "115",
        "ciudad": "Circasia, Quindío",
        "region": "Central",
        "latlng": { 
            "lat": 4.615896729679342, 
            "lng": -75.63382682645874
        },
        "zoom": 16,
        "web": "",
        "dir": "calle 5 No 5-58",
        "tel": ""
    },{
        "sede": "Principal",
        "cod":  "116",
        "ciudad": "Salento, Quindío",
        "region": "Central",
        "latlng": { 
            "lat": 4.638336702631756, 
            "lng": -75.57031833862305
        },
        "zoom": 16,
        "web": "",
        "dir": "carrera 5 No 5-09",
        "tel": ""
    },{
        "sede": "Principal",
        "cod":  "118",
        "ciudad": "Quimbaya, Quindío",
        "region": "Central",
        "latlng": { 
            "lat": 4.623250248045168, 
            "lng": -75.76644719314572
        },
        "zoom": 16,
        "web": "",
        "dir": "carrera 6 No 20-12",
        "tel": ""
    },{
        "sede": "Principal",
        "cod":  "119",
        "ciudad": "Montenegro, Quindío",
        "region": "Central",
        "latlng": { 
            "lat": 4.566614763946695, 
            "lng": -75.75165172485345
        },
        "zoom": 16,
        "web": "",
        "dir": "carrera 7 No 18-24",
        "tel": "753 8460"
    },{
        "sede": "Encuentro de Vida",
        "cod":  "128",
        "ciudad": "Armenia Quindío",
        "region": "Central",
        "latlng": { 
            "lat": 4.54892723644829,
            "lng": -75.66025183853151
        },
        "zoom": 16,
        "web": "http://www.elencuentrodevida.org/web/",
        "dir": "carrera 14 No 11N-85",
        "tel": ""
    },{
        "sede": "Principal",
        "cod":  "150",
        "ciudad": "Pijao, Quindío",
        "region": "Central",
        "latlng": { 
            "lat": 4.334809645467599,
            "lng": -75.70648021697997
        },
        "zoom": 16,
        "web": "",
        "dir": "carrera 14 No 14",
        "tel": ""
    },{
        "sede": "Centro",
        "cod":  "121",
        "ciudad": "Pereira, Risaralda",
        "region": "Central",
        "latlng": { 
            "lat": 4.811424810180595,
            "lng": -75.68221600784301
        },
        "zoom": 16,
        "web": "",
        "dir": "carrera 9 No 4-45",
        "tel": ""
    },{
        "sede": "San Andresito",
        "cod":  "110",
        "ciudad": "Pereira, Risaralda",
        "region": "Central",
        "latlng": { 
            "lat": 4.8162838656457305,
            "lng": -75.70800812973022
        },
        "zoom": 16,
        "web": "",
        "dir": "carrera 7 No 35-40",
        "tel": ""
    },{
        "sede": "Aviva Pereira",
        "cod":  "122",
        "ciudad": "Pereira, Risaralda",
        "region": "Central",
        "latlng": { 
            "lat": 4.817908888550432,
            "lng": -75.69470973743438
        },
        "zoom": 16,
        "web": "",
        "dir": "calle 20 No 3-24",
        "tel": ""
    },{
        "sede": "Centro",
        "cod":  "123",
        "ciudad": "Manizales, Caldas",
        "region": "Central",
        "latlng": { 
            "lat": 5.071960855236286,
            "lng": -75.51387167060852
        },
        "zoom": 16,
        "web": "",
        "dir": "calle 28 No 15-60",
        "tel": ""
    },{
        "sede": "Asunción",
        "cod":  "127",
        "ciudad": "Manizales, Caldas",
        "region": "Central",
        "latlng": { 
            "lat": 5.067723514525996,
            "lng": -75.49406087482453
        },
        "zoom": 16,
        "web": "",
        "dir": "carrera 16 No 51c-75",
        "tel": ""
    },{
        "sede": "Principal",
        "cod":  "126",
        "ciudad": "La Dorada, Caldas",
        "region": "Central",
        "latlng": { 
            "lat": 5.450622795846976,
            "lng": -74.6674464735413
        },
        "zoom": 16,
        "web": "",
        "dir": "calle 13 No 8-43",
        "tel": ""
    },{
        "sede": "Principal",
        "cod":  "125",
        "ciudad": "Villa María, Caldas",
        "region": "Central",
        "latlng": { 
            "lat": 5.56833,
            "lng": -74.80977000000001
        },
        "zoom": 16,
        "web": "",
        "dir": "carrera 6 No 10-31",
        "tel": ""
    },{
        "sede": "Principal",
        "cod":  "124",
        "ciudad": "Chinchiná, Caldas",
        "region": "Central",
        "latlng": { 
            "lat": 4.982475097497867,
            "lng": -75.60613527381895
        },
        "zoom": 16,
        "web": "",
        "dir": "calle 10 No 10-80",
        "tel": ""
    },{
        "sede": "Principal",
        "cod":  "129",
        "ciudad": "Marcella, Caldas",
        "region": "Central",
        "latlng": { 
            "lat": 4.9345220336656155,
            "lng": -75.73308030815122
        },
        "zoom": 16,
        "web": "",
        "dir": "carrera 12 No 7-48",
        "tel": ""
    },{
        "sede": "Principal",
        "cod":  "108",
        "ciudad": "Sevilla, Caldas",
        "region": "Central",
        "latlng": { 
            "lat": 4.272495578465387,
            "lng": -75.93437265739442
        },
        "zoom": 16,
        "web": "",
        "dir": "carrera 43 No 48-31",
        "tel": ""
    },{
        "sede": "La Floresta",
        "cod":  "132",
        "ciudad": "Medellín, Antioquia",
        "region": "Central",
        "latlng": { 
            "lat": 6.259406653269682,
            "lng": -75.6097460280609
        },
        "zoom": 16,
        "web": "",
        "dir": "carrera 94 No 48a-133",
        "tel": ""
    },{
        "sede": "Alfonso López",
        "cod":  "133",
        "ciudad": "Medellín, Antioquia",
        "region": "Central",
        "latlng": { 
            "lat": 6.283636687900714,
            "lng": -75.57455008136748
        },
        "zoom": 16,
        "web": "",
        "dir": "calle 91a No 67a-79",
        "tel": ""
    },{
        "sede": "Principal",
        "cod":  "135",
        "ciudad": "Turbo, Antioquia",
        "region": "Central",
        "latlng": { 
            "lat": 8.098153184471006,
            "lng": -76.72935142362593
        },
        "zoom": 16,
        "web": "",
        "dir": "calle 109 No 14-25",
        "tel": ""
    },{
        "sede": "Principal",
        "cod":  "134",
        "ciudad": "Apartadó, Antioquia",
        "region": "Central",
        "latlng": { 
            "lat": 7.877880046707942,
            "lng": -76.61855326908119
        },
        "zoom": 16,
        "web": "",
        "dir": "calle 103 No 79-27",
        "tel": ""
    },{
        "sede": "Principal",
        "cod":  "136",
        "ciudad": "San Juan de Urabá, Antioquia",
        "region": "Central",
        "latlng": { 
            "lat": 8.757737287654567,
            "lng": -76.52919501125336
        },
        "zoom": 16,
        "web": "",
        "dir": "carrera 20 No 17-02",
        "tel": ""
    },{
        "sede": "Principal",
        "cod":  "137",
        "ciudad": "Montería, Córdoba",
        "region": "Central",
        "latlng": { 
            "lat": 8.743255814885893,
            "lng": -75.89214435661387
        },
        "zoom": 16,
        "web": "",
        "dir": "carrera 8 No 10-26",
        "tel": ""
    },{
        "sede": "Edmundo López",
        "cod":  "138",
        "ciudad": "Montería, Córdoba",
        "region": "Central",
        "latlng": { 
            "lat": 8.741010377101462,
            "lng": -75.88890961254191
        },
        "zoom": 16,
        "web": "",
        "dir": "carrera 8f No 11-61",
        "tel": ""
    },{
        "sede": "Principal",
        "cod":  "142",
        "ciudad": "Cereté, Córdoba",
        "region": "Central",
        "latlng": { 
            "lat": 8.88167,
            "lng": -75.79622
        },
        "zoom": 16,
        "web": "",
        "dir": "",
        "tel": ""
    },{
        "sede": "Principal",
        "cod":  "143",
        "ciudad": "Jaraquiel, Córdoba",
        "region": "Central",
        "latlng": { 
            "lat": 8.694398,
            "lng": -75.9470498
        },
        "zoom": 16,
        "web": "",
        "dir": "",
        "tel": ""
    },{
        "sede": "Principal",
        "cod":  "144",
        "ciudad": "Planeta Rica, Córdoba",
        "region": "Central",
        "latlng": { 
            "lat": 8.409473496660981,
            "lng": -75.58802203704835
        },
        "zoom": 16,
        "web": "",
        "dir": "calle 15 No 12-34",
        "tel": ""
    },{
        "sede": "Principal",
        "cod":  "145",
        "ciudad": "Valencia, Córdoba",
        "region": "Central",
        "latlng": { 
            "lat": 8.261706984012982,
            "lng": -76.15178735588069
        },
        "zoom": 16,
        "web": "",
        "dir": "carrera 19a No 9a-15",
        "tel": ""
    },{
        "sede": "Los Alpes",
        "cod":  "147",
        "ciudad": "Cartagena, Bolívar",
        "region": "Central",
        "latlng": { 
            "lat": 10.399536064402758,
            "lng": -75.48516190398254
        },
        "zoom": 16,
        "web": "",
        "dir": "Transv. 71 No 31a-57",
        "tel": "661 6939"
    },{
        "sede": "Principal",
        "cod":  "104",
        "ciudad": "Quibdó, Chocó",
        "region": "Central",
        "latlng": { 
            "lat": 5.683997254916566,
            "lng": -76.63869527496337
        },
        "zoom": 16,
        "web": "",
        "dir": "carrera 25 No 20-73",
        "tel": ""
    },{
        "sede": "Neiva Centro",
        "cod":  "212",
        "ciudad": "Neiva, Huila",
        "region": "Sur Oriental",
        "latlng": { 
            "lat": 2.930401665477485,
            "lng": -75.28296966991422
        },
        "zoom": 16,
        "web": "",
        "dir": "carrera 12 No 9-45",
        "tel": "871 6213"
    },{
        "sede": "Neiva Norte",
        "cod":  "214",
        "ciudad": "Neiva, Huila",
        "region": "Sur Oriental",
        "latlng": { 
            "lat": 2.9740261466912243,
            "lng": -75.28487672052376
        },
        "zoom": 16,
        "web": "http://alianzaneivanorte.com/intro.html",
        "dir": "carrera 7 No 81-14",
        "tel": "866 0647"
    },{
        "sede": "Principal",
        "cod":  "215",
        "ciudad": "Pitalito, Huila",
        "region": "Sur Oriental",
        "latlng": { 
            "lat": 1.848305451195868,
            "lng": -76.04755579259034
        },
        "zoom": 16,
        "web": "",
        "dir": "calle 1 No 2-30",
        "tel": "836 13-09"
    },{
        "sede": "Principal",
        "cod":  "Proyecto Misionero",
        "ciudad": "Timaná - Huila,",
        "region": "Sur Oriental",
        "latlng": { 
            "lat": 1.9714431535717831,
            "lng": -75.93254392059328
        },
        "zoom": 16,
        "web": "",
        "dir": "Calle 9 # 2-59",
        "tel": ""
    },{
        "sede": "Principal",
        "cod":  "206",
        "ciudad": "Garzón - Huila,",
        "region": "Sur Oriental",
        "latlng": { 
            "lat": 2.1955164594331036,
            "lng": -75.63090523809814
        },
        "zoom": 16,
        "web": "",
        "dir": "Calle 3 # 10a-22",
        "tel": "833 0310"
    },{
        "sede": "Principal",
        "cod":  "279",
        "ciudad": "Santa Marta - Huila,",
        "region": "Sur Oriental",
        "latlng": { 
            "lat": 1.933333,
            "lng": -76.53333299999997
        },
        "zoom": 16,
        "web": "",
        "dir": "Av. Santa Marta",
        "tel": "833 5150"
    },{
        "sede": "Principal",
        "cod":  "211",
        "ciudad": "La Plata - Huila,",
        "region": "Sur Oriental",
        "latlng": { 
            "lat": 2.390939559747996,
            "lng": -75.89278833862306
        },
        "zoom": 16,
        "web": "",
        "dir": "Calle 7 # 6-34",
        "tel": "837 0585"
    },{
        "sede": "Principal",
        "cod":  "208",
        "ciudad": "Gigante - Huila,",
        "region": "Sur Oriental",
        "latlng": { 
            "lat": 2.386124554231928,
            "lng": -75.54664157539366
        },
        "zoom": 16,
        "web": "",
        "dir": "Carrera 5 # 5-32",
        "tel": "832 5595"
    },{
        "sede": "Principal",
        "cod":  "204",
        "ciudad": "Campoalegre - Huila,",
        "region": "Sur Oriental",
        "latlng": { 
            "lat": 2.684506300000036,
            "lng": -75.32599312394257
        },
        "zoom": 16,
        "web": "",
        "dir": "Calle 18 # 10-05",
        "tel": "838 0107"
    },{
        "sede": "Principal",
        "cod":  "201",
        "ciudad": "Algeciras - Huila,",
        "region": "Sur Oriental",
        "latlng": { 
            "lat": 2.5255956658729457,
            "lng": -75.31643047088625
        },
        "zoom": 16,
        "web": "",
        "dir": "Carrera 3 # 5-52",
        "tel": "838 2141"
    },{
        "sede": "Principal",
        "cod":  "209",
        "ciudad": "Arcadia - Huila,",
        "region": "Sur Oriental",
        "latlng": { 
            "lat": 2.4450706,
            "lng": -75.39586629999997
        },
        "zoom": 16,
        "web": "",
        "dir": "",
        "tel": "833 6382"
    },{
        "sede": "Principal",
        "cod":  "Proyecto Misionero",
        "ciudad": "El Paraiso - Huila,",
        "region": "Sur Oriental",
        "latlng": { 
            "lat": 2.5969826,
            "lng": -75.10053440000002
        },
        "zoom": 16,
        "web": "",
        "dir": "",
        "tel": ""
    },{
        "sede": "Principal",
        "cod":  "202",
        "ciudad": "Baraya - Huila,",
        "region": "Sur Oriental",
        "latlng": { 
            "lat": 3.154280243521469,
            "lng": -75.05231373862307
        },
        "zoom": 16,
        "web": "",
        "dir": "Calle 5A # 5-28",
        "tel": "878 8595"
    },{
        "sede": "Principal",
        "cod":  "203",
        "ciudad": "Bruselas - Huila,",
        "region": "Sur Oriental",
        "latlng": { 
            "lat": 1.776436,
            "lng": -76.17547569999999
        },
        "zoom": 16,
        "web": "",
        "dir": "",
        "tel": "835 0218"
    },{
        "sede": "Principal",
        "cod":  "205",
        "ciudad": "Gaitania - Huila,",
        "region": "Sur Oriental",
        "latlng": { 
            "lat": 3.0926862,
            "lng": -75.67171910000002
        },
        "zoom": 16,
        "web": "",
        "dir": "",
        "tel": "224 6057"
    },{
        "sede": "Principal",
        "cod":  "216",
        "ciudad": "Rio Negro - Huila,",
        "region": "Sur Oriental",
        "latlng": { 
            "lat": 2.908689,
            "lng": -75.437386
        },
        "zoom": 16,
        "web": "",
        "dir": "",
        "tel": ""
    },{
        "sede": "Principal",
        "cod":  "217",
        "ciudad": "Rivera - Huila,",
        "region": "Sur Oriental",
        "latlng": { 
            "lat": 2.7782868932125715,
            "lng": -75.2632075932541
        },
        "zoom": 16,
        "web": "",
        "dir": "Calle 2 # 13-63",
        "tel": "838 6949"
    },{
        "sede": "Principal",
        "cod":  "218",
        "ciudad": "San Agustín - Huila,",
        "region": "Sur Oriental",
        "latlng": { 
            "lat": 1.8801233232814634,
            "lng": -76.26922473491823
        },
        "zoom": 16,
        "web": "",
        "dir": "Calle 2 # 7-28",
        "tel": "837 9299"
    },{
        "sede": "Principal",
        "cod":  "219",
        "ciudad": "Santana Ramos, Puerto Rico - Huila,",
        "region": "Sur Oriental",
        "latlng": { 
            "lat": 2.24035,
            "lng": -75.11412999999999
        },
        "zoom": 16,
        "web": "",
        "dir": "Vía Algeciras",
        "tel": ""
    },{
        "sede": "Principal",
        "cod":  "210",
        "ciudad": "Los Angeles, La Plata - Huila,",
        "region": "Sur Oriental",
        "latlng": { 
            "lat": 2.455655,
            "lng": -75.7589524
        },
        "zoom": 16,
        "web": "",
        "dir": "Calle 7 # 6-34",
        "tel": ""
    },{
        "sede": "Principal",
        "cod":  "220",
        "ciudad": "Tello - Huila,",
        "region": "Sur Oriental",
        "latlng": { 
            "lat": 3.068508377146552,
            "lng": -75.13934750066375
        },
        "zoom": 16,
        "web": "",
        "dir": "Carrera 7 # 4-76",
        "tel": "848 8194"
    },{
        "sede": "Principal",
        "cod":  "221",
        "ciudad": "Tres Esquinas - Huila,",
        "region": "Sur Oriental",
        "latlng": { 
            "lat": 2.3211609,
            "lng": -75.50292009999998
        },
        "zoom": 16,
        "web": "",
        "dir": "",
        "tel": ""
    },{
        "sede": "Principal",
        "cod":  "222",
        "ciudad": "San José de Isnos - Huila,",
        "region": "Sur Oriental",
        "latlng": { 
            "lat": 1.94999,
            "lng": -76.21672999999998
        },
        "zoom": 16,
        "web": "",
        "dir": "Carrera 7 # 5-53",
        "tel": ""
    },{
        "sede": "Principal",
        "cod":  "224",
        "ciudad": "El descanso, Garzón - Huila,",
        "region": "Sur Oriental",
        "latlng": { 
            "lat": 2.2053925036589126,
            "lng": -75.61982028564455
        },
        "zoom": 16,
        "web": "",
        "dir": "",
        "tel": ""
    },{
        "sede": "Principal",
        "cod":  "225",
        "ciudad": "La Gran Vía, Gigante - Huila,",
        "region": "Sur Oriental",
        "latlng": { 
            "lat": 2.3786767,
            "lng": -75.484355
        },
        "zoom": 16,
        "web": "",
        "dir": "Vereda La Gran Vía",
        "tel": ""
    },{
        "sede": "Principal",
        "cod":  "213",
        "ciudad": "Los Cauchos, San Agustín, Huila,",
        "region": "Sur Oriental",
        "latlng": { 
            "lat": 1.880121,
            "lng": -76.265323
        }, 
        "zoom": 16,
        "web": "",
        "dir": "Calle 4 # 4-50 B. Las Brisas",
        "tel": ""
    },{
        "sede": "Principal",
        "cod":  "212",
        "ciudad": "Vegalarga, Neiva, Huila,",
        "region": "Sur Oriental",
        "latlng": { 
            "lat": 2.949154, 
            "lng": -75.041964
        }, 
        "zoom": 16,
        "web": "",
        "dir": "",
        "tel": ""
    },{
        "sede": "Principal",
        "cod":  "223",
        "ciudad": "Hobo, Huila,",
        "region": "Sur Oriental",
        "latlng": { 
            "lat": 2.581270,
            "lng": -75.447540
        }, 
        "zoom": 16,
        "web": "",
        "dir": "Carrera 3 # 5-14 B. La Esperanza",
        "tel": ""
    },{
        "sede": "Sede Oriente",
        "cod":  "281",
        "ciudad": "Neiva, Huila,",
        "region": "Sur Oriental",
        "latlng": { 
            "lat": 2.940505, 
            "lng": -75.249677
        }, 
        "zoom": 16,
        "web": "",
        "dir": "Calle 19 # 50-09",
        "tel": ""
    },{
        "sede": "Principal",
        "cod":  "282",
        "ciudad": "Santa Rita,",
        "region": "Sur Oriental",
        "latlng": { 
            "lat": 2.952747, 
            "lng": -75.223093
        }, 
        "zoom": 16,
        "web": "",
        "dir": "",
        "tel": ""
    },{
        "sede": "Principal",
        "cod":  "267",
        "ciudad": "La Palmera, Gaitania, Huila,",
        "region": "Sur Oriental",
        "latlng": { 
            "lat": 3.094571,  
            "lng": -75.672531
        }, 
        "zoom": 16,
        "web": "",
        "dir": "Vereda La Palmera",
        "tel": ""
    },{
        "sede": "Principal",
        "cod":  "271",
        "ciudad": "Palermo, Huila,",
        "region": "Sur Oriental",
        "latlng": { 
            "lat": 2.888348,  
            "lng": -75.433891
        }, 
        "zoom": 16,
        "web": "",
        "dir": "Calle 8 # 13A-26 B. Las Camelias",
        "tel": ""
    },{
        "sede": "Principal",
        "cod":  "275",
        "ciudad": "Aipe, Huila,",
        "region": "Sur Oriental",
        "latlng": { 
            "lat": 3.222273,   
            "lng": -75.239853
        }, 
        "zoom": 16,
        "web": "",
        "dir": "Calle 5 # 8-100 B. Los Fundadores",
        "tel": ""
    },{
        "sede": "Proyecto Misionero",
        "cod":  "265",
        "ciudad": "Miraflores, Huila,",
        "region": "Sur Oriental",
        "latlng": { 
            "lat": 2.050264,   
            "lng": -75.675893
        }, 
        "zoom": 16,
        "web": "",
        "dir": "",
        "tel": ""
    },{
        "sede": "Principal",
        "cod":  "264",
        "ciudad": "Tarqui, Huila,",
        "region": "Sur Oriental",
        "latlng": { 
            "lat": 2.115549,    
            "lng": -75.854387
        }, 
        "zoom": 16,
        "web": "",
        "dir": "Carrera 8 # 1-33",
        "tel": ""
    },{
        "sede": "Proyecto Misionero",
        "cod":  "207",
        "ciudad": "Acevedo, Huila,",
        "region": "Sur Oriental",
        "latlng": { 
            "lat": 1.818886,    
            "lng": -75.896798
        }, 
        "zoom": 16,
        "web": "",
        "dir": "Calle 5 # 5-47 Centro",
        "tel": ""
    },{
        "sede": "Proyecto Misionero",
        "cod":  "266",
        "ciudad": "Belén, La Plata, Huila,",
        "region": "Sur Oriental",
        "latlng": { 
            "lat": 2.204470,     
            "lng": -76.059806
        }, 
        "zoom": 16,
        "web": "",
        "dir": "Vereda Belén",
        "tel": ""
    },{
        "sede": "Proyecto Misionero",
        "cod":  "211",
        "ciudad": "Villa Losada, La Plata, Huila,",
        "region": "Sur Oriental",
        "latlng": { 
            "lat": 2.278912,    
            "lng": -75.964708
        }, 
        "zoom": 16,
        "web": "",
        "dir": "Vereda Villa Losada",
        "tel": ""
    },{
        "sede": "Principal",
        "cod":  "272",
        "ciudad": "San Antonio de Anaconia, Neiva, Huila,",
        "region": "Sur Oriental",
        "latlng": { 
            "lat": 2.875193,     
            "lng": -75.492567
        }, 
        "zoom": 16,
        "web": "",
        "dir": "",
        "tel": ""
    },{
        "sede": "Estadio",
        "cod":  "239",
        "ciudad": "Ibagué, Tolima,",
        "region": "Sur Oriental",
        "latlng": { 
            "lat": 4.432758,      
            "lng": -75.224254
        }, 
        "zoom": 16,
        "web": "",
        "dir": "Calle 32 # 3A-24",
        "tel": ""
    },{
        "sede": "Principal",
        "cod":  "241",
        "ciudad": "Casabianca, Tolima,",
        "region": "Sur Oriental",
        "latlng": { 
            "lat": 5.066473,      
            "lng": -75.133665
        }, 
        "zoom": 16,
        "web": "",
        "dir": "Carrera 3 # 2-26",
        "tel": ""
    },{
        "sede": "Principal",
        "cod":  "235",
        "ciudad": "El Paujil, Ataco, Tolima,",
        "region": "Sur Oriental",
        "latlng": { 
            "lat": 3.360018,       
            "lng": -75.681810
        }, 
        "zoom": 16,
        "web": "",
        "dir": "Carrera 4 # 8-10",
        "tel": ""
    },{
        "sede": "Principal",
        "cod":  "236",
        "ciudad": "Planadas, Tolima,",
        "region": "Sur Oriental",
        "latlng": { 
            "lat": 3.194381,       
            "lng": -75.648160
        }, 
        "zoom": 16,
        "web": "",
        "dir": "Carrera 7 # 4-46 B. Buenos Aires",
        "tel": ""
    },{
        "sede": "Principal",
        "cod":  "238",
        "ciudad": "Dolores, Tolima,",
        "region": "Sur Oriental",
        "latlng": { 
            "lat": 3.663930,    
            "lng": -74.753617
        }, 
        "zoom": 16,
        "web": "",
        "dir": "Calle 6A # 7-06",
        "tel": ""
    },{
        "sede": "Principal",
        "cod":  "243",
        "ciudad": "Chaparral, Tolima,",
        "region": "Sur Oriental",
        "latlng": { 
            "lat": 3.749932,       
            "lng": -75.583701
        }, 
        "zoom": 16,
        "web": "",
        "dir": "Calle 9 # 5-69",
        "tel": ""
    },{
        "sede": "Principal",
        "cod":  "230",
        "ciudad": "Herrera, Rioblanco, Tolima,",
        "region": "Sur Oriental",
        "latlng": { 
            "lat": 3.286850,       
            "lng": -75.819381
        }, 
        "zoom": 16,
        "web": "",
        "dir": "Vía Rioblanco, Herrera",
        "tel": ""
    },{
        "sede": "Principal",
        "cod":  "237",
        "ciudad": "Casa de Zinc, Ataco, Tolima,",
        "region": "Sur Oriental",
        "latlng": { 
            "lat": 3.286866,       
            "lng": -75.585770
        }, 
        "zoom": 16,
        "web": "",
        "dir": "",
        "tel": ""
    },{
        "sede": "Encuentro",
        "cod":  "240",
        "ciudad": "Ibagué, Tolima,",
        "region": "Sur Oriental",
        "latlng": { 
            "lat": 4.439048,        
            "lng": -75.216861
        }, 
        "zoom": 16,
        "web": "",
        "dir": "Carrera 6 # 37-48 B. San Simón",
        "tel": ""
    },{
        "sede": "Principal",
        "cod":  "242",
        "ciudad": "La Marina, Chaparral, Tolima,",
        "region": "Sur Oriental",
        "latlng": { 
            "lat": 3.719920,         
            "lng": -75.626715
        }, 
        "zoom": 16,
        "web": "",
        "dir": "Vereda La Marina",
        "tel": ""
    },{
        "sede": "Principal",
        "cod":  "244",
        "ciudad": "Florencia, Tolima,",
        "region": "Sur Oriental",
        "latlng": { 
            "lat": 3.721340,        
            "lng": -75.601986 
        }, 
        "zoom": 16,
        "web": "",
        "dir": "Carrera 10 # 9-36",
        "tel": ""
    },{
        "sede": "Principal",
        "cod":  "227",
        "ciudad": "Rioblanco, Tolima,",
        "region": "Sur Oriental",
        "latlng": { 
            "lat": 3.529415,         
            "lng": -75.645475 
        }, 
        "zoom": 16,
        "web": "",
        "dir": "Calle 3 # 2-23",
        "tel": ""
    },{
        "sede": "Proyecto Misionero Jireth",
        "cod":  "231",
        "ciudad": "Ibagué, Tolima,",
        "region": "Sur Oriental",
        "latlng": { 
            "lat": 4.447500,          
            "lng": -75.211167 
        }, 
        "zoom": 16,
        "web": "",
        "dir": "Calle 39 Manzana E Casa # 3",
        "tel": ""
    },{
        "sede": "Principal",
        "cod":  "247",
        "ciudad": "Puerto Rico, Caquetá,",
        "region": "Sur Oriental",
        "latlng": { 
            "lat": 1.907308,          
            "lng": -75.154701 
        }, 
        "zoom": 16,
        "web": "",
        "dir": "Carrera 6 # 3-33 Comercio",
        "tel": ""
    },{
        "sede": "Principal",
        "cod":  "249",
        "ciudad": "San Vicente del Caguán, Caquetá,",
        "region": "Sur Oriental",
        "latlng": { 
            "lat": 2.115627,           
            "lng": -74.771787 
        }, 
        "zoom": 16,
        "web": "",
        "dir": "Calle 6A # 7-36 B. Santa Isabel",
        "tel": ""
    },{
        "sede": "Principal",
        "cod":  "246",
        "ciudad": "El Doncello, Caquetá,",
        "region": "Sur Oriental",
        "latlng": { 
            "lat": 1.682036,            
            "lng": -75.285469 
        }, 
        "zoom": 16,
        "web": "",
        "dir": "Calle 6 # 4-70",
        "tel": ""
    },{
        "sede": "Principal",
        "cod":  "245",
        "ciudad": "Cartagena del Chairá, Caquetá,",
        "region": "Sur Oriental",
        "latlng": { 
            "lat": 1.337201,             
            "lng": -74.846269 
        }, 
        "zoom": 16,
        "web": "",
        "dir": "Calle 9 # 6-48",
        "tel": ""
    },{
        "sede": "Principal",
        "cod":  "269",
        "ciudad": "La Montañita, Caquetá,",
        "region": "Sur Oriental",
        "latlng": { 
            "lat": 1.479692,              
            "lng": -75.436860 
        }, 
        "zoom": 16,
        "web": "",
        "dir": "Calle 6 Manzana 4",
        "tel": ""
    },{
        "sede": "Principal",
        "cod":  "258",
        "ciudad": "San Antonio de Getucha, Caquetá,",
        "region": "Sur Oriental",
        "latlng": { 
            "lat": 1.100958,               
            "lng": -75.400931
        }, 
        "zoom": 16,
        "web": "",
        "dir": "",
        "tel": ""
    },{
        "sede": "Principal",
        "cod":  "235",
        "ciudad": "El Paujil, Caquetá,",
        "region": "Sur Oriental",
        "latlng": { 
            "lat": 1.569355,                
            "lng": -75.328159
        }, 
        "zoom": 16,
        "web": "",
        "dir": "Calle 3 # 6-41",
        "tel": ""
    },{
        "sede": "Principal",
        "cod":  "251",
        "ciudad": "Orito, Putumayo,",
        "region": "Sur Oriental",
        "latlng": { 
            "lat": 0.665916,                 
            "lng": -76.871084
        }, 
        "zoom": 16,
        "web": "",
        "dir": "Carrera 13 # 4-10",
        "tel": ""
    },{
        "sede": "Principal",
        "cod":  "252",
        "ciudad": "Puerto Asís, Putumayo,",
        "region": "Sur Oriental",
        "latlng": { 
            "lat": 0.510350,                 
            "lng": -76.491121
        }, 
        "zoom": 16,
        "web": "",
        "dir": "B. Obrero 1",
        "tel": ""
    },{
        "sede": "Principal",
        "cod":  "250",
        "ciudad": "Villa Garzón, Putumayo,",
        "region": "Sur Oriental",
        "latlng": { 
            "lat": 1.029152,                  
            "lng": -76.616985
        }, 
        "zoom": 16,
        "web": "",
        "dir": "",
        "tel": ""
    },{
        "sede": "Principal",
        "cod":  "253",
        "ciudad": "Mocoa, Putumayo,",
        "region": "Sur Oriental",
        "latlng": { 
            "lat": 1.155407,                   
            "lng": -76.652131
        }, 
        "zoom": 16,
        "web": "",
        "dir": "Calle 16 # 15-26",
        "tel": ""
    },{
        "sede": "Principal",
        "cod":  "255",
        "ciudad": "La Libertad, Putumayo,",
        "region": "Sur Oriental",
        "latlng": { 
            "lat": 1.066556,                    
            "lng": -75.898361
        }, 
        "zoom": 16,
        "web": "",
        "dir": "Vereda La Libertad",
        "tel": ""
    },{
        "sede": "El Encuentro Heroes",
        "cod":  "302",
        "ciudad": "Bogotá, Cundinamarca,",
        "region": "Mecusab",
        "latlng": { 
            "lat": 4.666281,                     
            "lng": -74.055302
        }, 
        "zoom": 16,
        "web": "",
        "dir": "Av. 13 # 81-05",
        "tel": ""
    },{
        "sede": "El Encuentro Avenida 80",
        "cod":  "301",
        "ciudad": "Bogotá, Cundinamarca,",
        "region": "Mecusab",
        "latlng": { 
            "lat": 4.706322,                    
            "lng": -74.108360
        }, 
        "zoom": 16,
        "web": "",
        "dir": "Calle 80A # 94A-27",
        "tel": ""
    },{
        "sede": "San Cristóbal Norte",
        "cod":  "305",
        "ciudad": "Bogotá, Cundinamarca,",
        "region": "Mecusab",
        "latlng": { 
            "lat": 4.737393,                       
            "lng": -74.027939
        }, 
        "zoom": 16,
        "web": "",
        "dir": "Carrera 8B # 161A-40",
        "tel": ""
    },{
        "sede": "El Encuentro Suba",
        "cod":  "309",
        "ciudad": "Bogotá, Cundinamarca,",
        "region": "Mecusab",
        "latlng": { 
            "lat": 4.711691,                      
            "lng": -74.033156
        }, 
        "zoom": 16,
        "web": "",
        "dir": "Calle 133 # 9AB-50",
        "tel": ""
    },{
        "sede": "Fragüita",
        "cod":  "304",
        "ciudad": "Bogotá, Cundinamarca,",
        "region": "Mecusab",
        "latlng": { 
            "lat": 4.599701,                       
            "lng": -74.094895
        }, 
        "zoom": 16,
        "web": "",
        "dir": "Carrera 24B # 3-11",
        "tel": ""
    },{
        "sede": "Kennedy",
        "cod":  "303",
        "ciudad": "Bogotá, Cundinamarca,",
        "region": "Mecusab",
        "latlng": { 
            "lat": 4.627499,                       
            "lng": -74.150828
        }, 
        "zoom": 16,
        "web": "",
        "dir": "Calle 33 Sur # 78A-09",
        "tel": ""
    },{
        "sede": "Sanfrancisco",
        "cod":  "314",
        "ciudad": "Bogotá, Cundinamarca,",
        "region": "Mecusab",
        "latlng": { 
            "lat": 4.637667,                        
            "lng": -74.112205
        }, 
        "zoom": 16,
        "web": "",
        "dir": "Diagonal 65 Bis A # 18Q-37 Sur",
        "tel": ""
    },{
        "sede": "Bosa",
        "cod":  "308",
        "ciudad": "Bogotá, Cundinamarca,",
        "region": "Mecusab",
        "latlng": { 
            "lat": 4.609934,                         
            "lng": -74.183869
        }, 
        "zoom": 16,
        "web": "",
        "dir": "Carrera 80H # 60-25 Sur Bosa Argelia",
        "tel": ""
    },{
        "sede": "Soacha",
        "cod":  "315",
        "ciudad": "Bogotá, Cundinamarca,",
        "region": "Mecusab",
        "latlng": { 
            "lat": 4.575846,                          
            "lng": -74.215792
        }, 
        "zoom": 16,
        "web": "",
        "dir": "Calle 12B # 1-12 Este Urb. España",
        "tel": ""
    },{
        "sede": "Puerta Abierta",
        "cod":  "312",
        "ciudad": "Bogotá, Cundinamarca,",
        "region": "Mecusab",
        "latlng": { 
            "lat": 4.757142,                           
            "lng": -74.047963
        }, 
        "zoom": 16,
        "web": "",
        "dir": "Carrera 49 # 176-14 Nueva Zelandia",
        "tel": ""
    },{
        "sede": "Juan Pablo II",
        "cod":  "311",
        "ciudad": "Bogotá, Cundinamarca,",
        "region": "Mecusab",
        "latlng": { 
            "lat": 4.554458,                            
            "lng": -74.148295
        }, 
        "zoom": 16,
        "web": "",
        "dir": "Carrera 18Q # 68B-27 Sur",
        "tel": ""
    },{
        "sede": "El Virrey",
        "cod":  "317",
        "ciudad": "Bogotá, Cundinamarca,",
        "region": "Mecusab",
        "latlng": { 
            "lat": 4.668902,                            
            "lng": -74.040446
        }, 
        "zoom": 16,
        "web": "",
        "dir": "Calle 91Sur # 3D-71 B. Bellavista",
        "tel": ""
    },{
        "sede": "Cielos Abiertos",
        "cod":  "338",
        "ciudad": "Bogotá, Cundinamarca,",
        "region": "Mecusab",
        "latlng": { 
            "lat": 4.711236,                               
            "lng": -74.222048
        }, 
        "zoom": 16,
        "web": "",
        "dir": "Calle 15 # 2-16 Mosquera",
        "tel": ""
    },{
        "sede": "Principal",
        "cod":  "316",
        "ciudad": "Carmen de Apicalá, Tolima,",
        "region": "Mecusab",
        "latlng": { 
            "lat": 4.148734,                                
            "lng": -74.715554
        }, 
        "zoom": 16,
        "web": "",
        "dir": "Carrera 13 # 2-116 B. Arenitas",
        "tel": ""
    }
]